[{"name": "Narayanhiti Palace Museum North Gate Rd Bus Stop", "location": {"latitude": 27.7178758, "longitude": 85.3227237}, "address": "Uttar Dhoka Road, Kathmandu"}, {"name": "Narayan Chaur Bus Stop", "location": {"latitude": 27.7149874, "longitude": 85.32637419999999}, "address": "Sama Marga, Kathmandu"}, {"name": "Nag Pokhari Bus Stand", "location": {"latitude": 27.713327, "longitude": 85.3236124}, "address": "Narayanhiti Path, Kathmandu"}, {"name": "Ramayan Barai", "location": {"latitude": 27.71367979999999, "longitude": 85.3218097}, "address": "Narayanhiti Path, Kathmandu"}, {"name": "Jai Nepal Hall", "location": {"latitude": 27.7136845, "longitude": 85.32170239999999}, "address": "Narayanhiti Path, Kathmandu"}, {"name": "Naxal Bus Stop", "location": {"latitude": 27.7144555, "longitude": 85.3291234}, "address": "Sama Marga, Kathmandu"}, {"name": "Lazimpat", "location": {"latitude": 27.7210521, "longitude": 85.3198086}, "address": "Lazimpat Road, Kathmandu"}, {"name": "Tangaal Bus Stand", "location": {"latitude": 27.7171644, "longitude": 85.33035790000001}, "address": "Kathmandu"}, {"name": "Hattisar Bus Stop", "location": {"latitude": 27.710582, "longitude": 85.3219866}, "address": "Kathmandu"}, {"name": "Lainchaur Bus Stop", "location": {"latitude": 27.7171347, "longitude": 85.3150722}, "address": "Leknath Marg, Kathmandu"}, {"name": "Putali Sadak", "location": {"latitude": 27.706305, "longitude": 85.3227738}, "address": "Nepal"}, {"name": "Putali Sadak", "location": {"latitude": 27.706874, "longitude": 85.32277169999999}, "address": "Kamaladi, Kathmandu"}, {"name": "Putali Sadak", "location": {"latitude": 27.70573599999999, "longitude": 85.3227759}, "address": "Putalisadak, Kathmandu"}, {"name": "Charkhal Bus Stop", "location": {"latitude": 27.70654709999999, "longitude": 85.3270294}, "address": "Charkhal Road, Kathmandu"}, {"name": "Dillibazar", "location": {"latitude": 27.705404, "longitude": 85.3266692}, "address": "Kathmandu"}, {"name": "Dillibazar Pipalko Bot Bus Stop", "location": {"latitude": 27.7049619, "longitude": 85.3291342}, "address": "Dilli Bazaar Road, Kathmandu"}, {"name": "Bhaktapur Mini Buspark", "location": {"latitude": 27.705608, "longitude": 85.316963}, "address": "Bag Bazar Sadak, Kathmandu"}, {"name": "Bhaktapur Bus Park", "location": {"latitude": 27.70556699999999, "longitude": 85.316909}, "address": "Kathmandu"}, {"name": "New Plaza Bus Stop", "location": {"latitude": 27.70081789999999, "longitude": 85.32329229999999}, "address": "Kumari Galli 2, Kathmandu"}, {"name": "JAMAL BUS STOP", "location": {"latitude": 27.708941, "longitude": 85.3155819}, "address": "Kathmandu"}, {"name": "Jamal Bus Stand", "location": {"latitude": 27.7088477, "longitude": 85.315322}, "address": "Jamal Road, Kathmandu"}, {"name": "Ratnapark Bus Stop", "location": {"latitude": 27.706768, "longitude": 85.3153569}, "address": "Ratna Park Path, Kathmandu"}, {"name": "Ratna Park Micro Bus Stop", "location": {"latitude": 27.70673189999999, "longitude": 85.3153475}, "address": "Ratna Park Path, Kathmandu"}, {"name": "Ratna Park Bus Stop", "location": {"latitude": 27.7067801, "longitude": 85.3147485}, "address": "Ratna Park Road Ratna Park, \u0915\u093e\u0920\u092e\u093e\u0921\u094c\u0901"}, {"name": "Maitidevi chowk", "location": {"latitude": 27.703941, "longitude": 85.33246009999999}, "address": "Kathmandu"}, {"name": "Seto Pool", "location": {"latitude": 27.703005, "longitude": 85.3358073}, "address": "Baneshwor Height, Kathmandu"}, {"name": "Gaushala", "location": {"latitude": 27.7075113, "longitude": 85.34392919999999}, "address": "Ring Road, Kathmandu"}, {"name": "Baluwatar Bus Stop", "location": {"latitude": 27.7244932, "longitude": 85.3309069}, "address": "Kathmandu"}, {"name": "Gyanpunja Marga Bus Stop", "location": {"latitude": 27.7332386, "longitude": 85.33636539999999}, "address": "Kathmandu"}, {"name": "Maharajgunj", "location": {"latitude": 27.733975, "longitude": 85.3299949}, "address": "Kathmandu"}, {"name": "Sorhakhutte Bus Stop", "location": {"latitude": 27.7194134, "longitude": 85.3095379}, "address": "Naya Bazaar Marg, Kathmandu"}, {"name": "Sorhakhutte Bus Stop", "location": {"latitude": 27.7192062, "longitude": 85.3095278}, "address": "Nepal"}, {"name": "Naya Bazar", "location": {"latitude": 27.7191814, "longitude": 85.3096178}, "address": "Kathmandu"}, {"name": "\u0928\u092f\u093e\u0901 \u092c\u0938\u092a\u093e\u0930\u094d\u0915", "location": {"latitude": 27.73236500000001, "longitude": 85.308031}, "address": "\u0928\u092f\u093e\u0901 \u092c\u0938\u092a\u093e\u0930\u094d\u0915, \u0915\u093e\u0920\u092e\u093e\u0921\u094c\u0901"}, {"name": "Gongabu New Bus Station Parking", "location": {"latitude": 27.732436, "longitude": 85.3081285}, "address": "Kathmandu"}, {"name": "Sorhakhutte Bus Stop", "location": {"latitude": 27.718999, "longitude": 85.3095178}, "address": "Kathmandu"}, {"name": "Balaju Chowk", "location": {"latitude": 27.7272544, "longitude": 85.30473669999999}, "address": "Ring Road, Kathmandu"}, {"name": "Thamel Bus Stop", "location": {"latitude": 27.7181822, "longitude": 85.31201229999999}, "address": "Leknath Marg, Kathmandu"}, {"name": "BALAJU BUS STOP", "location": {"latitude": 27.727356, "longitude": 85.304706}, "address": "Lekhnath Sadak, Kathmandu"}, {"name": "ASCOL", "location": {"latitude": 27.7178106, "longitude": 85.31318}, "address": "Amrit Marg, Kathmandu"}, {"name": "Gongabu Chowk Bus Stop", "location": {"latitude": 27.7347108, "longitude": 85.31443829999999}, "address": "Samakhusi Marg, Kathmandu"}, {"name": "Gongabu Bus Stop", "location": {"latitude": 27.73488459999999, "longitude": 85.3145644}, "address": "Ring Road, Kathmandu"}, {"name": "Pokhara Chitawon Bus Arrival Station", "location": {"latitude": 27.71852860000001, "longitude": 85.3075475}, "address": "Kathmandu"}, {"name": "Phalphul Bus Stop", "location": {"latitude": 27.7192329, "longitude": 85.3068504}, "address": "Kathmandu"}, {"name": "Kanti Path Bus Stop", "location": {"latitude": 27.7093455, "longitude": 85.3145993}, "address": "Kanti Path, Kathmandu"}, {"name": "Gitanjali Bus Stop", "location": {"latitude": 27.7193659, "longitude": 85.3049996}, "address": "Khusibun, Kathmandu"}, {"name": "Bir Hospital Bus Stop", "location": {"latitude": 27.7057169, "longitude": 85.3142276}, "address": "Tundikhel, Kathmandu"}, {"name": "NAC Bus Stop", "location": {"latitude": 27.702504, "longitude": 85.3135183}, "address": "Kantipath Road, Kathmandu"}, {"name": "New Road Micro Stand", "location": {"latitude": 27.7019089, "longitude": 85.31365400000001}, "address": "Kanti Path, Kathmandu"}, {"name": "Tundikhel Bus Stop", "location": {"latitude": 27.7020182, "longitude": 85.3165487}, "address": "Durbar Marg, Kathmandu"}, {"name": "Bus Stand", "location": {"latitude": 27.70108549999999, "longitude": 85.316648}, "address": "Durbar Marg, Bhadrakali"}, {"name": "Bhrikuti Mandap Bus Stop", "location": {"latitude": 27.7009082, "longitude": 85.3166109}, "address": "Durbar Marg, Kathmandu"}, {"name": "Shahid Gate Bus Stand", "location": {"latitude": 27.6996693, "longitude": 85.31410869999999}, "address": "Tundikhel, Kathmandu"}, {"name": "Bus Stop", "location": {"latitude": 27.699653, "longitude": 85.314168}, "address": "Sundhara, Kathmandu"}, {"name": "Tripuresvara bus park", "location": {"latitude": 27.694889, "longitude": 85.31094390000001}, "address": "Tripura Marg, Kathmandu"}, {"name": "Tripureshwor Bus Stand", "location": {"latitude": 27.693898, "longitude": 85.312996}, "address": "Tripura Marg, Kathmandu"}, {"name": "Trolly Bus Stand", "location": {"latitude": 27.693583, "longitude": 85.314458}, "address": "Tripura Marg, Kathmandu"}, {"name": "Tripureshwor Bus Stop", "location": {"latitude": 27.693558, "longitude": 85.31444239999999}, "address": "Tripura Marg, Kathmandu"}, {"name": "\u091f\u0947\u0915\u0941 \u092c\u0938 \u092c\u093f\u0938\u094c\u0928\u0940", "location": {"latitude": 27.6963006, "longitude": 85.30699349999999}, "address": "Tripura Marg, Kathmandu"}, {"name": "Singha Durbar Bus Station", "location": {"latitude": 27.6974576, "longitude": 85.3212569}, "address": "Putalisadak, Kathmandu"}, {"name": "BUS STOP", "location": {"latitude": 27.696685, "longitude": 85.3210749}, "address": "\u0938\u093f\u0902\u0939\u0926\u0930\u092c\u093e\u0930 \u092e\u093e\u0930\u094d\u0917, Kathmandu"}, {"name": "Thapathali Bus Stand", "location": {"latitude": 27.6940539, "longitude": 85.3193824}, "address": "Thapathali Road, Kathmandu"}, {"name": "Bus Stand", "location": {"latitude": 27.696492, "longitude": 85.3063619}, "address": "Tripura Marg, Kathmandu"}, {"name": "Bus Stop", "location": {"latitude": 27.693336, "longitude": 85.318603}, "address": "\u0925\u093e\u092a\u093e\u0925\u0932\u0940 \u0938\u0921\u0915, Kathmandu"}, {"name": "Ghattekulo Bus Stop", "location": {"latitude": 27.6994655, "longitude": 85.328603}, "address": "Tankaprasad Ghumti Road, Kathmandu"}, {"name": "Anamnagar Bus Stop", "location": {"latitude": 27.6994643, "longitude": 85.32865939999999}, "address": "Ghattekulo, Kathmandu"}, {"name": "\u092e\u093e\u0908\u0924\u0940\u0918\u0930 \u092c\u0938 \u092c\u093f\u0938\u094c\u0928\u0940", "location": {"latitude": 27.6938279, "longitude": 85.3213387}, "address": "Araniko Highway, Kathmandu"}, {"name": "Hanumansthan Bus Stop", "location": {"latitude": 27.6934254, "longitude": 85.3275591}, "address": "Tankaprasad Ghumti Road, Kathmandu"}, {"name": "Babar Mahal Bus Stand", "location": {"latitude": 27.69206819999999, "longitude": 85.324449}, "address": "Madan Bhandari Path, Kathmandu"}, {"name": "Bijulibazar", "location": {"latitude": 27.6921993, "longitude": 85.3302326}, "address": "Bhaktithapa Road, \u0915\u093e\u0920\u092e\u093e\u0921\u094c\u0901"}, {"name": "New Baneshwor", "location": {"latitude": 27.6903878, "longitude": 85.335801}, "address": "Shantinagar, Kathmandu"}, {"name": "\u0915\u093e\u0924\u094d\u092f\u093e\u092f\u0928\u0940 \u091a\u094b\u0915", "location": {"latitude": 27.6954215, "longitude": 85.3444523}, "address": "Kathmandu"}, {"name": "Tara Hal Chowk Bus Stop", "location": {"latitude": 27.6971845, "longitude": 85.35056229999999}, "address": "Sinamangal Road, Kathmandu"}, {"name": "Tara Hall Chowk", "location": {"latitude": 27.697181, "longitude": 85.35056600000001}, "address": "Sinamangal Road, Kathmandu"}, {"name": "Tilganga Bus Station", "location": {"latitude": 27.7044142, "longitude": 85.35028319999999}, "address": "Tilganga, Kathmandu"}, {"name": "\u0935\u093f\u092e\u093e\u0928\u0938\u094d\u0925\u0932", "location": {"latitude": 27.7010382, "longitude": 85.3533867}, "address": "Airport Road, Kathmandu"}, {"name": "Airport", "location": {"latitude": 27.7008508, "longitude": 85.35357429999999}, "address": "Nepal"}, {"name": "\u0935\u093f\u092e\u093e\u0928\u0938\u094d\u0925\u0932", "location": {"latitude": 27.70066349999999, "longitude": 85.3537619}, "address": "\u0915\u093e\u0920\u092e\u093e\u0921\u094c\u0902"}, {"name": "\u091c\u092f \u092c\u0917\u0947\u0936\u094d\u0935\u0930\u0940", "location": {"latitude": 27.7105146, "longitude": 85.34421909999999}, "address": "Ring Road, Kathmandu"}, {"name": "\u092e\u093f\u0924\u094d\u0930\u092a\u093e\u0930\u094d\u0915", "location": {"latitude": 27.7132707, "longitude": 85.34544199999999}, "address": "Kathmandu"}, {"name": "Chabahil", "location": {"latitude": 27.7172633, "longitude": 85.346594}, "address": "Ring Road, Kathmandu"}, {"name": "Maiju Bahal Bus Stop", "location": {"latitude": 27.7176449, "longitude": 85.34759389999999}, "address": "Gangalal Way, Kathmandu"}, {"name": "Shanti Goreto Bus Stop", "location": {"latitude": 27.7178807, "longitude": 85.3479297}, "address": "Kathmandu"}, {"name": "\u0917\u094b\u092a\u093f\u0915\u0943\u0937\u094d\u0923", "location": {"latitude": 27.721811, "longitude": 85.34570509999999}, "address": "Ring Road, Kathmandu"}, {"name": "\u0928\u0947\u092a\u093e\u0932 \u092f\u093e\u0924\u093e\u092f\u093e\u0924 \u092c\u0938\u092a\u093e\u0930\u094d\u0915", "location": {"latitude": 27.722187, "longitude": 85.34462900000001}, "address": "\u0906\u0928\u0928\u094d\u200d\u0926 \u092e\u093e\u0930\u094d\u0917\u200d, Kathmandu"}, {"name": "Chuchchepati Bus Stop", "location": {"latitude": 27.7192651, "longitude": 85.3504143}, "address": "Chuchchepati, Kathmandu"}, {"name": "Chuchchepati Bus Stop", "location": {"latitude": 27.7193775, "longitude": 85.351383}, "address": "Nepal"}, {"name": "CHUCHEPATI BUS STOP", "location": {"latitude": 27.719477, "longitude": 85.3514989}, "address": "Boudhanath Sadak, Kathmandu"}, {"name": "Chuchchepati Bus Stop", "location": {"latitude": 27.7194899, "longitude": 85.3523517}, "address": "Chuchchepati, Kathmandu"}, {"name": "Hayat Regency", "location": {"latitude": 27.7192212, "longitude": 85.3540763}, "address": "Gangalal Way, Kathmandu"}, {"name": "Kapan SaatTaley Chowk Bus Stop", "location": {"latitude": 27.7269565, "longitude": 85.35044429999999}, "address": "Kumaristhan, Budhanilkantha"}, {"name": "Dhumbarahi", "location": {"latitude": 27.7318221, "longitude": 85.34443189999999}, "address": "Ring Road, Kathmandu"}, {"name": "Narayan Chowk Bus Stop", "location": {"latitude": 27.7284167, "longitude": 85.3517935}, "address": "Budhanilkantha"}, {"name": "\u091a\u092a\u094d\u092a\u0932 \u0915\u093e\u0930\u0916\u093e\u0928\u093e \u092c\u0938 \u092c\u093f\u0938\u094c\u0928\u0940", "location": {"latitude": 27.7346531, "longitude": 85.34229380000001}, "address": "Ring Road, Kathmandu"}, {"name": "Milan Chowk Bus Stop", "location": {"latitude": 27.7292168, "longitude": 85.3534457}, "address": "Budhanilkantha"}, {"name": "Pancha Kumari Bus Stop", "location": {"latitude": 27.7291339, "longitude": 85.3534993}, "address": ""}, {"name": "Chakrapath Bus Stop", "location": {"latitude": 27.7393422, "longitude": 85.33662149999999}, "address": "Maharajgunj Road, Kathmandu"}, {"name": "Narayan Gopal Chowk Bus Stop", "location": {"latitude": 27.7400237, "longitude": 85.3370305}, "address": "Maharajgunj Road, Kathmandu"}, {"name": "Teaching Bus Stand", "location": {"latitude": 27.7354417, "longitude": 85.3317143}, "address": "Maharajgunj Road, Kathmandu"}, {"name": "Sajha Bus Stop", "location": {"latitude": 27.7420176, "longitude": 85.3333962}, "address": "Basundhara, Ring Road, Kathmandu"}, {"name": "\u092c\u0938\u0941\u0928\u094d\u0927\u093e\u0930\u093e", "location": {"latitude": 27.7422217, "longitude": 85.3322992}, "address": "Ring Road, Kathmandu"}, {"name": "Taxi Stand", "location": {"latitude": 27.742228, "longitude": 85.33175}, "address": "Ring Road, Kathmandu"}, {"name": "\u092c\u0938\u0941\u0928\u094d\u0927\u093e\u0930\u093e \u091a\u094c\u0915\u0940 \u092c\u0938 \u092c\u093f\u0938\u094c\u0928\u0940", "location": {"latitude": 27.7380845, "longitude": 85.3249367}, "address": "Pragatinagar"}, {"name": "Taalim Kendra Bus Stop", "location": {"latitude": 27.736161, "longitude": 85.32208}, "address": "Samakhusi, Kathmandu"}, {"name": "Samakhusi Chowk Bus Stop", "location": {"latitude": 27.7352209, "longitude": 85.3181338}, "address": "Ring Road, Kathmandu"}, {"name": "\u0917\u094b\u0919\u094d\u0917\u092c\u0941 \u091a\u094b\u0915 \u092c\u0938 \u092c\u093f\u0938\u094c\u0928\u0940", "location": {"latitude": 27.7351428, "longitude": 85.3144829}, "address": "Kathmandu"}, {"name": "Dhading Bus Park", "location": {"latitude": 27.7346517, "longitude": 85.3064037}, "address": "Kathmandu"}, {"name": "Machha Pokhari", "location": {"latitude": 27.7353111, "longitude": 85.3058395}, "address": "Ring Road, Kathmandu"}, {"name": "Machha Pokhari Micro Stop", "location": {"latitude": 27.735334, "longitude": 85.3056249}, "address": "Balaju Ring Road Track Left, Kathmandu"}, {"name": "Trishuli Bus Departure Arrival point", "location": {"latitude": 27.7356696, "longitude": 85.3052115}, "address": "Kathmandu"}, {"name": "Syabrubeshi Departure Arrival Station", "location": {"latitude": 27.7357355, "longitude": 85.30508789999999}, "address": "Kathmandu"}, {"name": "Lekhnath Sadak", "location": {"latitude": 27.7365472, "longitude": 85.3018869}, "address": "Kathmandu"}, {"name": "BALAJU POLICE CHAUKI BUS STOP", "location": {"latitude": 27.732666, "longitude": 85.3028229}, "address": "Lekhnath Sadak, Kathmandu"}, {"name": "Balaju Police Chowki Stop", "location": {"latitude": 27.7326407, "longitude": 85.3026953}, "address": "Kathmandu"}, {"name": "BID Gate Bus Stop", "location": {"latitude": 27.7296826, "longitude": 85.3037196}, "address": "Lekhnath Sadak, Kathmandu"}, {"name": "Nepaltar MicroBus Stop", "location": {"latitude": 27.741163, "longitude": 85.3033662}, "address": "Kathmandu"}, {"name": "Balaju Height Micro Station", "location": {"latitude": 27.7356007, "longitude": 85.2956414}, "address": "Kathmandu"}, {"name": "Bohoratar Micro Stand", "location": {"latitude": 27.7355746, "longitude": 85.29551269999999}, "address": "Kathmandu"}, {"name": "Samarpan Chowk", "location": {"latitude": 27.7318568, "longitude": 85.2956736}, "address": "Kathmandu"}, {"name": "Banasthali Bus Stop", "location": {"latitude": 27.725062, "longitude": 85.2982019}, "address": "Ring Road, Kathmandu"}, {"name": "\u0935\u0928\u0938\u094d\u0925\u0932\u0940 \u091a\u094b\u0915", "location": {"latitude": 27.7249466, "longitude": 85.2978325}, "address": "Kathmandu"}, {"name": "Medical Bus Stop", "location": {"latitude": 27.7194846, "longitude": 85.30285119999999}, "address": "Khusibun, Kathmandu"}, {"name": "Dhungedhara Bus Stop", "location": {"latitude": 27.7234545, "longitude": 85.2945417}, "address": "Ring Road, Kathmandu"}, {"name": "Kalimati Bus Stop", "location": {"latitude": 27.6982725, "longitude": 85.29937919999999}, "address": "Kathmandu"}, {"name": "Muktinath Darshan Pvt. Ltd.", "location": {"latitude": 27.697282, "longitude": 85.2952239}, "address": "Ganeshman Singh Road, Kathmandu"}, {"name": "BALKHU BUS STOP", "location": {"latitude": 27.684341, "longitude": 85.301271}, "address": "Ring Road, Lalitpur"}, {"name": "Cleanup bus stop", "location": {"latitude": 27.684947, "longitude": 85.2984309}, "address": "Ring Road, Kathmandu"}, {"name": "Balkhu", "location": {"latitude": 27.6848675, "longitude": 85.2984072}, "address": "Ring Road, Kathmandu"}, {"name": "BALKHU BUS PARK", "location": {"latitude": 27.683672, "longitude": 85.2997329}, "address": "Balkhu Road, Lalitpur"}, {"name": "Kupondole Bus Stop", "location": {"latitude": 27.6877194, "longitude": 85.31653879999999}, "address": "Nepal"}, {"name": "Kupondole Bus Stop", "location": {"latitude": 27.6878413, "longitude": 85.31630249999999}, "address": "Kupondole Road, Lalitpur"}, {"name": "Thapathali Bus Stop", "location": {"latitude": 27.6912335, "longitude": 85.3176744}, "address": "Kathmandu"}, {"name": "Kupondole Bus Stop", "location": {"latitude": 27.6875974, "longitude": 85.3167751}, "address": "Lalitpur"}, {"name": "Jwagal Chowk Bus Stop", "location": {"latitude": 27.6854496, "longitude": 85.31824309999999}, "address": "Chakupat, Lalitpur"}, {"name": "Engineering Campus Bus Stop", "location": {"latitude": 27.68222889999999, "longitude": 85.3195064}, "address": "Patandhoka Road, Lalitpur"}, {"name": "New Baneshwor Bus Stop", "location": {"latitude": 27.6885866, "longitude": 85.33471320000001}, "address": "New Baneshwor Road, Kathmandu"}, {"name": "New Baneshwor Bus Stand", "location": {"latitude": 27.6881061, "longitude": 85.33615139999999}, "address": "New Baneshwor Rd, Kathmandu"}, {"name": "New Baneshwor Bus Stop", "location": {"latitude": 27.687908, "longitude": 85.336353}, "address": "\u092e\u0926\u0928 \u092d\u0923\u094d\u0921\u093e\u0930\u0940 \u0930\u094b\u0921, Kathmandu"}, {"name": "Trolly Bus Park", "location": {"latitude": 27.6883077, "longitude": 85.3389805}, "address": "New Baneshwor Rd, Kathmandu"}, {"name": "Minbhawan Bus Stop", "location": {"latitude": 27.687327, "longitude": 85.338555}, "address": "\u092e\u0926\u0928 \u092d\u0923\u094d\u0921\u093e\u0930\u0940 \u0930\u094b\u0921, Kathmandu"}, {"name": "Minbhawan Bus Stand", "location": {"latitude": 27.6876886, "longitude": 85.3389892}, "address": "New Baneshwor Rd, Kathmandu"}, {"name": "Minbhawan Bus Stop, Kathmandu, Central Region, Nepal", "location": {"latitude": 27.6891626, "longitude": 85.3403905}, "address": "N.K.Singh Marg, Kathmandu"}, {"name": "Tinkune Bus Stand", "location": {"latitude": 27.6862127, "longitude": 85.3456729}, "address": "Kathmandu"}, {"name": "Sinamangal Bus Stop", "location": {"latitude": 27.6953248, "longitude": 85.35496359999999}, "address": "Sinamangal Road, Kathmandu"}, {"name": "Pepsicola", "location": {"latitude": 27.6888506, "longitude": 85.3602497}, "address": "Papsi Cola Nha Katti Mandir 40097'I', Kathmandu"}, {"name": "Saraswoti Nagar Bus Stop", "location": {"latitude": 27.6849223, "longitude": 85.3568897}, "address": "Kathmandu"}, {"name": "Sai Ram Chowk Bus Stop", "location": {"latitude": 27.6898849, "longitude": 85.3630822}, "address": "Purano Sinamangal, Kathmandu"}, {"name": "Micro Station", "location": {"latitude": 27.71425, "longitude": 85.354849}, "address": "\u092c\u094c\u0926\u094d\u0927\u0935\u093e\u0930 \u0938\u0921\u0915, Kathmandu"}, {"name": "Micro Station Bus Stop", "location": {"latitude": 27.7142525, "longitude": 85.3549953}, "address": "Kathmandu"}, {"name": "Bauddha Bus Stand", "location": {"latitude": 27.7207062, "longitude": 85.3617498}, "address": "Gangalal Way, Kathmandu"}, {"name": "Milan Chowk Bus Stop", "location": {"latitude": 27.729535, "longitude": 85.3542537}, "address": "Nepal"}, {"name": "Bhrikuti Chowk Bus Stop", "location": {"latitude": 27.7273791, "longitude": 85.3570077}, "address": "Saraswatinagar Road 6, Kathmandu"}, {"name": "Mahankal Oralo Chowk Bus Stop", "location": {"latitude": 27.7266408, "longitude": 85.3582844}, "address": ""}, {"name": "Milan Chowk Bus Stop", "location": {"latitude": 27.72985319999999, "longitude": 85.3550618}, "address": ""}, {"name": "Tenzing Chowk", "location": {"latitude": 27.7287847, "longitude": 85.35919229999999}, "address": "Budhanilkantha"}, {"name": "Dhaulagiri Chowk Bus Stop", "location": {"latitude": 27.7379415, "longitude": 85.3628361}, "address": "Budhanilkantha"}, {"name": "Kharibot Chowk Bus Stop", "location": {"latitude": 27.7354947, "longitude": 85.3642735}, "address": ""}, {"name": "Bansbari", "location": {"latitude": 27.745686, "longitude": 85.3423437}, "address": "Bansbari Road, Kathmandu"}, {"name": "Golfutar", "location": {"latitude": 27.7509905, "longitude": 85.34575579999999}, "address": "Khadka Bhadrakali Road, Kathmandu"}, {"name": "Dhapasi Height Microbus Stand", "location": {"latitude": 27.7498488, "longitude": 85.3379989}, "address": "Dhapasi Marg, Kathmandu"}, {"name": "Manamaiju Public Micro Bus Stop", "location": {"latitude": 27.7518712, "longitude": 85.3122255}, "address": "Tarakeshwar"}, {"name": "Seshmati Bus Stop", "location": {"latitude": 27.7440018, "longitude": 85.3003138}, "address": "Glorious General Stores"}, {"name": "Shantitole Bus Stop", "location": {"latitude": 27.7487604, "longitude": 85.30154499999999}, "address": "Shantitole, Manamaiju VDC-8 , Nepal, Kathmandu"}, {"name": "Goldhunga Bus Stop", "location": {"latitude": 27.745761, "longitude": 85.2942485}, "address": "Goldhunga Road, \u0924\u093e\u0930\u0915\u0947\u0936\u094d\u0935\u0930"}, {"name": "Kharibot Micro Bus Station", "location": {"latitude": 27.730836, "longitude": 85.2938819}, "address": "Kathmandu"}, {"name": "Tufan Chowk Bus Stop", "location": {"latitude": 27.7321345, "longitude": 85.28911289999999}, "address": "Ekaltar"}, {"name": "Radha Krishna Chowk Bus Stop", "location": {"latitude": 27.7301261, "longitude": 85.2874044}, "address": "Kathmandu"}, {"name": "Sano Bharyang Bus Stop", "location": {"latitude": 27.7208045, "longitude": 85.28912629999999}, "address": "Ring Road, Kathmandu"}, {"name": "Thulo Bharyang Bus Stop", "location": {"latitude": 27.7196829, "longitude": 85.286711}, "address": "Nagarjun"}, {"name": "\u0938\u094d\u0935\u092f\u092e\u094d\u092d\u0942 \u092c\u0938 \u092c\u093f\u0938\u094c\u0928\u0940", "location": {"latitude": 27.715799, "longitude": 85.2836198}, "address": "Swayambhu sthup"}, {"name": "Swayambhu Bus Stop", "location": {"latitude": 27.716629, "longitude": 85.283389}, "address": "\u091a\u0915\u094d\u0930\u092a\u0925, Nagarjun"}, {"name": "\u0938\u094b\u0932\u094d\u091f\u0940\u092e\u094b\u0921 \u092c\u0938 \u092c\u093f\u0938\u094c\u0928\u0940", "location": {"latitude": 27.6966863, "longitude": 85.2935476}, "address": "Ganeshman Singh Path, Kathmandu"}, {"name": "TU Gate", "location": {"latitude": 27.6788589, "longitude": 85.2971623}, "address": "Dakchhinkali Road, Kirtipur"}, {"name": "Sundarighat Bus Stop", "location": {"latitude": 27.6748441, "longitude": 85.2920929}, "address": "Dakchhinkali Road, Kirtipur"}, {"name": "University", "location": {"latitude": 27.6785162, "longitude": 85.28523109999999}, "address": "TU Road, Kirtipur"}, {"name": "HariharBhawan", "location": {"latitude": 27.6810722, "longitude": 85.31739739999999}, "address": "Hariharbhawan, Lalitpur"}, {"name": "Pulchowk", "location": {"latitude": 27.6767823, "longitude": 85.316171}, "address": "Pulchowk, Lalitpur"}, {"name": "TOURIST BUS PARK", "location": {"latitude": 27.675764, "longitude": 85.317497}, "address": "Natole Road, Lalitpur"}, {"name": "Tourist Buspark", "location": {"latitude": 27.67579169999999, "longitude": 85.31757979999999}, "address": "Tripadma School Road, Lalitpur"}, {"name": "Lalitpur Yatayaat Bus Stand", "location": {"latitude": 27.6791664, "longitude": 85.3207097}, "address": "Patandhoka Road, Lalitpur"}, {"name": "Jawalakhel Bus Stop", "location": {"latitude": 27.6724723, "longitude": 85.3141164}, "address": "Lagankhel Satdobato Road, Lalitpur"}, {"name": "Jawalakhel Bus Stop", "location": {"latitude": 27.6724331, "longitude": 85.3144276}, "address": "Lagankhel Satdobato Road, Lalitpur"}, {"name": "Mangal Bazar", "location": {"latitude": 27.6726484, "longitude": 85.32491979999999}, "address": "Lalitpur"}, {"name": "Partner city maikarovasa Park", "location": {"latitude": 27.6789864, "longitude": 85.3355064}, "address": "Kathmandu"}, {"name": "Khari Bot Micro Bus Station", "location": {"latitude": 27.6778216, "longitude": 85.3386144}, "address": "Kathmandu"}, {"name": "Bakumari Chyasal Bus Stop", "location": {"latitude": 27.672409, "longitude": 85.335517}, "address": "Sahid Sukra Raj Marg, Balkumari"}, {"name": "Koteshwore Bus Stand", "location": {"latitude": 27.6798771, "longitude": 85.3494489}, "address": "Ring Road, Kathmandu"}, {"name": "Koteshwor Bus Stop", "location": {"latitude": 27.678207, "longitude": 85.3489089}, "address": "Ring Road, Kathmandu"}, {"name": "\u0905\u092e\u0930\u093e\u0935\u0924\u0940 \u092e\u093e\u0930\u094d\u0917 \u092c\u0938 \u092c\u093f\u0938\u094c\u0928\u0940", "location": {"latitude": 27.6738892, "longitude": 85.342513}, "address": "Ring Road, Kathmandu"}, {"name": "BALKUMARI BUS STAND", "location": {"latitude": 27.673892, "longitude": 85.342497}, "address": "\u0930\u093f\u0919\u094d\u0917 \u0930\u094b\u0921, Balkumari"}, {"name": "Jadibuti Bus Stop", "location": {"latitude": 27.675625, "longitude": 85.351416}, "address": "Araniko Highway, Kathmandu"}, {"name": "Jadibuti Bus Stop", "location": {"latitude": 27.6751172, "longitude": 85.35329279999999}, "address": "Kathmandu"}, {"name": "\u0932\u094b\u0915\u0928\u094d\u0925\u0932\u0940 \u092c\u0938 \u092c\u093f\u0938\u094c\u0928\u0940", "location": {"latitude": 27.6749629, "longitude": 85.35974619999999}, "address": "Araniko Highway, Madhyapur Thimi"}, {"name": "Bus Stop Kausaltar", "location": {"latitude": 27.6744127, "longitude": 85.3642151}, "address": "Araniko Highway, Madhyapur Thimi"}, {"name": "Kaushaltar 2 kalanki tempo park", "location": {"latitude": 27.674274, "longitude": 85.3639197}, "address": "Madhyapur Thimi"}, {"name": "PANIKA", "location": {"latitude": 27.68259699999999, "longitude": 85.3723311}, "address": "Bhaktapur Road, Madhyapur Thimi"}, {"name": "Hanumante Chowk Bus Stop", "location": {"latitude": 27.6730151, "longitude": 85.3645849}, "address": "F091, Madhyapur Thimi"}, {"name": "Nepal Yatayat Bus Stop", "location": {"latitude": 27.693987, "longitude": 85.366495}, "address": "\u092a\u0941\u0930\u093e\u0928\u094b \u0938\u093f\u0928\u093e\u092e\u0902\u0917\u0932 \u092e\u093e\u0930\u094d\u0917, Kathmandu"}, {"name": "Nepal Yatayat Bus Station", "location": {"latitude": 27.6940749, "longitude": 85.36650639999999}, "address": "Kathmandu"}, {"name": "Khahare Chwok Bus Stop", "location": {"latitude": 27.6966088, "longitude": 85.3662495}, "address": "Purano Sinamangal, Kathmandu"}, {"name": "Kandhaghari Micro Park", "location": {"latitude": 27.6949425, "longitude": 85.37086130000002}, "address": "Kageshwari Manohara"}, {"name": "Kaandaaghari Chowk Bus Stop", "location": {"latitude": 27.6977592, "longitude": 85.37141919999999}, "address": "Kageshwari Manohara"}, {"name": "Birendra Chowk", "location": {"latitude": 27.6987613, "longitude": 85.37377819999999}, "address": "Kageshwari Manohara"}, {"name": "Old Bipul Chowk Bus Stop", "location": {"latitude": 27.71631, "longitude": 85.3670526}, "address": "Gokarneshwor"}, {"name": "Jorpati", "location": {"latitude": 27.7217839, "longitude": 85.37265939999999}, "address": "Jorpati-Sundarijal Road, Kathmandu"}, {"name": "Lions Lab", "location": {"latitude": 27.721948, "longitude": 85.3732309}, "address": "Boudha Road, Gokarneshwor"}, {"name": "Simaltar Chowk Bus Station", "location": {"latitude": 27.7323319, "longitude": 85.3741422}, "address": ""}, {"name": "Chunikhel Bus Stop", "location": {"latitude": 27.7542282, "longitude": 85.36827559999999}, "address": "Budhanilkantha"}, {"name": "Hattigauda Bus Stop", "location": {"latitude": 27.7562443, "longitude": 85.34905069999999}, "address": "Khadka Bhadrakali Road, Budhanilkantha"}, {"name": "Baniyatar Microbus Station", "location": {"latitude": 27.753706, "longitude": 85.31853679999999}, "address": "Baniyatar, Tokha"}, {"name": "Phutung Bus Stop", "location": {"latitude": 27.757893, "longitude": 85.3096479}, "address": "Tarakeshwar"}, {"name": "Jaranku Bus Stop", "location": {"latitude": 27.7575322, "longitude": 85.3021002}, "address": "Mahdevtole, Tarakeshwar"}, {"name": "Boharatar Bus Stop", "location": {"latitude": 27.7538484, "longitude": 85.2936459}, "address": "Boharatar Chowk, Goldhunga, NK"}, {"name": "Gairi Gaun Bus Stop", "location": {"latitude": 27.7229678, "longitude": 85.27714759999999}, "address": "Nagarjun"}, {"name": "Sano", "location": {"latitude": 27.7077099, "longitude": 85.282535}, "address": "Ring Road, Kathmandu"}, {"name": "Soaltee Dobato Chowk", "location": {"latitude": 27.7044323, "longitude": 85.2821177}, "address": "Ring Road Bafal Chowk, Kathmandu"}, {"name": "Kalanki Bus Stop", "location": {"latitude": 27.6939479, "longitude": 85.2814661}, "address": "Ring Road, Kathmandu"}, {"name": "waiting dhungaadda", "location": {"latitude": 27.69122399999999, "longitude": 85.275751}, "address": "\u0922\u0941\u0902\u0917\u093e\u0913\u0921\u093e, \u091a\u0928\u094d\u0926\u094d\u0930\u093e\u0917\u093f\u0930\u0940"}, {"name": "Panga Dobato Bus Stop", "location": {"latitude": 27.6745591, "longitude": 85.2804065}, "address": "Panga Road, Kirtipur"}, {"name": "Naya Bazar", "location": {"latitude": 27.6748802, "longitude": 85.277811}, "address": "Kirtipur Ring Road, Kirtipur"}, {"name": "Chobhar Gate", "location": {"latitude": 27.6704152, "longitude": 85.2905104}, "address": "Kirtipur"}, {"name": "Ekantakuna Bus Stop", "location": {"latitude": 27.6678603, "longitude": 85.30681009999999}, "address": "Lalitpur"}, {"name": "Nakkhu", "location": {"latitude": 27.66388079999999, "longitude": 85.306311}, "address": "Lalitpur"}, {"name": "Manbhawan", "location": {"latitude": 27.6721689, "longitude": 85.3156798}, "address": "Nepal"}, {"name": "Manbhawan", "location": {"latitude": 27.672205, "longitude": 85.3154062}, "address": "Manbhawan, Lalitpur"}, {"name": "Manbhawan Bus Stop", "location": {"latitude": 27.6721328, "longitude": 85.3159534}, "address": "Lagankhel Sadak, \u0932\u0932\u093f\u0924\u092a\u0941\u0930"}, {"name": "Kumaripati Agnishal", "location": {"latitude": 27.6706587, "longitude": 85.320484}, "address": "Kumaripati, Lalitpur"}, {"name": "\u0915\u0941\u0938\u0941\u0928\u094d\u0924\u0940 \u092c\u0938 \u092c\u093f\u0938\u094c\u0928\u0940", "location": {"latitude": 27.6653328, "longitude": 85.31313480000001}, "address": "Ring Road, Lalitpur"}, {"name": "Patan Hospital Bus Stop", "location": {"latitude": 27.6683439, "longitude": 85.3216529}, "address": "Sincha, Lalitpur"}, {"name": "\u0915\u0941\u0938\u0941\u0928\u094d\u0924\u0940 \u092c\u0938 \u092c\u093f\u0938\u094c\u0928\u0940", "location": {"latitude": 27.6642751, "longitude": 85.3143844}, "address": "Lalitpur"}, {"name": "Prayag Pokhari", "location": {"latitude": 27.6685126, "longitude": 85.3249672}, "address": "Thaina, Lalitpur"}, {"name": "Lagankhel Bus Station", "location": {"latitude": 27.6672915, "longitude": 85.3231529}, "address": "Sincha, Lalitpur"}, {"name": "Gwarko", "location": {"latitude": 27.6669801, "longitude": 85.33237539999999}, "address": "Nepal"}, {"name": "\u0916\u0930\u0940\u0915\u094b \u092c\u094b\u091f", "location": {"latitude": 27.6702513, "longitude": 85.3380713}, "address": "Ring Road, Lalitpur"}, {"name": "\u0917\u094d\u0935\u093e\u0930\u094d\u0915\u094b", "location": {"latitude": 27.6671298, "longitude": 85.3325524}, "address": "Ring Road, Lalitpur"}, {"name": "\u092c\u093e\u0932\u0915\u0941\u092e\u093e\u0930\u0940 \u092c\u0938 \u092c\u093f\u0938\u094c\u0928\u0940", "location": {"latitude": 27.6716042, "longitude": 85.3403266}, "address": "Ring Road, Lalitpur"}, {"name": "Gwarko Bus Stop", "location": {"latitude": 27.666858, "longitude": 85.3321}, "address": "Ring Road, Lalitpur"}, {"name": "\u0917\u094d\u0935\u093e\u0930\u094d\u0915\u094b", "location": {"latitude": 27.6668304, "longitude": 85.3321983}, "address": "Ring Road, Lalitpur"}, {"name": "B And B", "location": {"latitude": 27.6643106, "longitude": 85.33022369999999}, "address": "Lalitpur"}, {"name": "Khari Bot Bus Stop", "location": {"latitude": 27.6674826, "longitude": 85.3490415}, "address": "Mahalaxmi"}, {"name": "\u092d\u0917\u0935\u0924\u0940 \u092e\u0928\u094d\u0926\u093f\u0930", "location": {"latitude": 27.6673259, "longitude": 85.3531963}, "address": "Mahalaxmi"}, {"name": "Jhikucha Bus Stop", "location": {"latitude": 27.66592229999999, "longitude": 85.3551779}, "address": ""}, {"name": "\u092e\u094b\u0924\u093f\u091f\u093e\u0930 \u092c\u0938 \u0938\u094d\u091f\u0947\u0936\u0928", "location": {"latitude": 27.664974, "longitude": 85.3591078}, "address": "Mahalaxmi"}, {"name": "Redcross Chowk Bus Stop", "location": {"latitude": 27.66957069999999, "longitude": 85.3658348}, "address": "Balkot Height, Anantalingeshwar"}, {"name": "Gaththaghar Bus Stand", "location": {"latitude": 27.6741006, "longitude": 85.37326449999999}, "address": "Araniko Highway, Madhyapur Thimi"}, {"name": "Tikathali Ward 4 Bus Stop", "location": {"latitude": 27.66433499999999, "longitude": 85.3628361}, "address": "Mahalaxmi"}, {"name": "Thapa Chowk Bus Stop", "location": {"latitude": 27.6644871, "longitude": 85.3615165}, "address": "Mahalaxmi"}, {"name": "Chardobato Bus Stand", "location": {"latitude": 27.6735721, "longitude": 85.3798628}, "address": "Devdol, Madhyapur Thimi"}, {"name": "Tuberculosis Hospital Bus Stop", "location": {"latitude": 27.673559, "longitude": 85.38177519999999}, "address": "Araniko Highway, Madhyapur Thimi"}, {"name": "Siddhikali Chok Bus Stop", "location": {"latitude": 27.6823832, "longitude": 85.3832317}, "address": "Bhaktapur Road, Madhyapur Thimi"}, {"name": "Nasanani Tole", "location": {"latitude": 27.6810698, "longitude": 85.3845151}, "address": "Madhyapur-Thimi Municipality, Madhyapur Thimi"}, {"name": "Baakonani Tole Bus Stop", "location": {"latitude": 27.6810888, "longitude": 85.38474980000001}, "address": "Madhyapur-Thimi Municipality, Madhyapur Thimi"}, {"name": "Force Park Bus Stop", "location": {"latitude": 27.7012541, "longitude": 85.3788677}, "address": "Kageshwari Manohara"}, {"name": "Mother Hyolmo Bus", "location": {"latitude": 27.720683, "longitude": 85.3755719}, "address": "\u091c\u094b\u0930\u092a\u093e\u091f\u0940 \u0938\u0921\u0915, Gokarneshwor"}, {"name": "Narayantar", "location": {"latitude": 27.7215429, "longitude": 85.37979}, "address": "Gokarneshwor"}, {"name": "\u0906\u0930\u0941\u092c\u093e\u0930\u0940 \u092c\u0938\u092a\u093e\u0930\u094d\u0915", "location": {"latitude": 27.731083, "longitude": 85.3755829}, "address": "Sahid Park Road, Gokarneshwor"}, {"name": "Aarubari Chowk Bus Stop", "location": {"latitude": 27.7312633, "longitude": 85.3757724}, "address": "Gokarneshwor"}, {"name": "Chandranagar Chowk Bus Stop", "location": {"latitude": 27.7649793, "longitude": 85.3537996}, "address": "Golfutar Main Road"}, {"name": "Ghumti", "location": {"latitude": 27.7665134, "longitude": 85.3539205}, "address": "Budhanilkantha"}, {"name": "Chapali Bus Stop", "location": {"latitude": 27.76761089999999, "longitude": 85.3558302}, "address": "kathmandu, Budhanilkantha Rd, Budhanilkantha"}, {"name": "Futung Micro Bus stand", "location": {"latitude": 27.7636957, "longitude": 85.3117537}, "address": "Tarakeshwar"}, {"name": "North Valley Bus Stop", "location": {"latitude": 27.7618995, "longitude": 85.30115599999999}, "address": "Tarakeshwar"}, {"name": "Pirkun Bus Stop", "location": {"latitude": 27.7651084, "longitude": 85.298152}, "address": "Tarakeshwar"}, {"name": "Padamsal Bus Stop", "location": {"latitude": 27.768, "longitude": 85.30484609999999}, "address": "Tarakeshwar"}, {"name": "Dharmasthali Bypass Bus Stop", "location": {"latitude": 27.7672729, "longitude": 85.29707909999999}, "address": "Raj kulo Dharmasthali"}, {"name": "Dhitalchowk Bus Stop", "location": {"latitude": 27.76426339999999, "longitude": 85.2839041}, "address": "View Tower Way, Tarakeshwar"}, {"name": "Nakap Tempo Stop", "location": {"latitude": 27.687133, "longitude": 85.265011}, "address": "\u0928\u0948\u0915\u093e\u092a, \u091a\u0928\u094d\u0926\u094d\u0930\u093e\u0917\u093f\u0930\u0940"}, {"name": "Chobhar Galchhi", "location": {"latitude": 27.6605035, "longitude": 85.2916248}, "address": "Dakchhinkali Road, Kirtipur"}, {"name": "Chobhar", "location": {"latitude": 27.6588847, "longitude": 85.2914377}, "address": "Kirtipur"}, {"name": "Thasikhel Chowk", "location": {"latitude": 27.662842, "longitude": 85.31643}, "address": "Ring Road, Lalitpur"}, {"name": "\u0925\u0938\u093f\u0916\u0947\u0932 \u092c\u0938 \u092c\u093f\u0938\u094c\u0928\u0940", "location": {"latitude": 27.6628717, "longitude": 85.3164876}, "address": "Lalitpur"}, {"name": "Mahalaxmisthan Chowk", "location": {"latitude": 27.661415, "longitude": 85.3182269}, "address": "Ring Road, Lalitpur"}, {"name": "JRC Chowk Bus Stop", "location": {"latitude": 27.6601634, "longitude": 85.3196526}, "address": "Ring Road, Lalitpur"}, {"name": "talchikhela choke", "location": {"latitude": 27.659216, "longitude": 85.320933}, "address": "Ring Road, Lalitpur"}, {"name": "Satdobato Bus Stop", "location": {"latitude": 27.6587932, "longitude": 85.3247956}, "address": "Nepal"}, {"name": "Patan Industrial Estate", "location": {"latitude": 27.6624633, "longitude": 85.32392689999999}, "address": "Sincha, Lalitpur"}, {"name": "\u092c\u094b\u0926\u0940\u0917\u094d\u0930\u093e\u092e \u092c\u0938 \u092c\u093f\u0938\u094c\u0928\u0940", "location": {"latitude": 27.661965, "longitude": 85.3284482}, "address": "Ring Road, Lalitpur"}, {"name": "Satdobato Bus Stop", "location": {"latitude": 27.6591798, "longitude": 85.32532669999999}, "address": "Ring Road, Lalitpur"}, {"name": "\u0938\u093e\u0924\u0926\u094b\u092c\u093e\u091f\u094b \u092c\u0938 \u092c\u093f\u0938\u094c\u0928\u0940", "location": {"latitude": 27.6584066, "longitude": 85.32426459999999}, "address": "Ring Road, Lalitpur"}, {"name": "Bus Stop", "location": {"latitude": 27.6580906, "longitude": 85.3221604}, "address": "Ring Road, Lalitpur"}, {"name": "Dhapakhel Dobato", "location": {"latitude": 27.65712409999999, "longitude": 85.3262335}, "address": "Satdobato-Godavari Road, Lalitpur"}, {"name": "Khumaltar Micro Park", "location": {"latitude": 27.656951, "longitude": 85.3261139}, "address": "Godawari Sadak, Lalitpur"}, {"name": "Pipal Bot Bus Stop", "location": {"latitude": 27.662665, "longitude": 85.3404424}, "address": "Mahalaxmi"}, {"name": "Krishna Mandir", "location": {"latitude": 27.6617052, "longitude": 85.342631}, "address": "F072, Mahalaxmi"}, {"name": "Khari Bot Bus Stop", "location": {"latitude": 27.6591371, "longitude": 85.34458640000001}, "address": "F072, Mahalaxmi"}, {"name": "Dhunge Sangu Bus Stop", "location": {"latitude": 27.6611379, "longitude": 85.3502297}, "address": "Mahalaxmi"}, {"name": "Kamal Pokhari Bus Stop", "location": {"latitude": 27.6564858, "longitude": 85.34857749999999}, "address": "F072, Mahalaxmi"}, {"name": "Tikathali Bus Stop", "location": {"latitude": 27.6589948, "longitude": 85.3578754}, "address": "Mahalaxmi"}, {"name": "Bagmati Yatayat Bus Stop", "location": {"latitude": 27.6618739, "longitude": 85.3697186}, "address": "F091"}, {"name": "Force Park Bus Stop", "location": {"latitude": 27.6612394, "longitude": 85.36977259999999}, "address": "F091"}, {"name": "Amar Hall Park", "location": {"latitude": 27.6699698, "longitude": 85.38560269999999}, "address": "Devdol, Anantalingeshwar"}, {"name": "Thimi Bus Stop", "location": {"latitude": 27.673495, "longitude": 85.38633}, "address": "Araniko Highway, Madhyapur Thimi"}, {"name": "Thimi Bus Stand", "location": {"latitude": 27.6736042, "longitude": 85.3868526}, "address": "Araniko Highway, Madhyapur Thimi"}, {"name": "Lachhi Tole Bus Stop", "location": {"latitude": 27.6809332, "longitude": 85.3861123}, "address": "Madhyapur-Thimi Municipality, Madhyapur Thimi"}, {"name": "Basipukhu Tole Bus Stop", "location": {"latitude": 27.6814201, "longitude": 85.3848785}, "address": "Madhyapur-Thimi Municipality, Madhyapur Thimi"}, {"name": "Chapaa-Cho Tole Bus Stop", "location": {"latitude": 27.6812823, "longitude": 85.3855518}, "address": "Madhyapur-Thimi Municipality, Madhyapur Thimi"}, {"name": "Gaarchaa Tole Bus Stop", "location": {"latitude": 27.6818179, "longitude": 85.38621959999999}, "address": "Madhyapur-Thimi Municipality, Madhyapur Thimi"}, {"name": "Bahakha Bazar Bus Stop", "location": {"latitude": 27.6829865, "longitude": 85.38634840000002}, "address": "Bhaktapur Road, Madhyapur Thimi"}, {"name": "\u0926\u0941\u0935\u093e \u092b\u0932\u094d\u091a\u093e \u092c\u0938\u0938\u094d\u091f\u092a Duwa Phalcha Bus Stop", "location": {"latitude": 27.6820111, "longitude": 85.3872526}, "address": "Bhaktapur Road, Madhyapur Thimi"}, {"name": "Pacho Tole Bus Stop", "location": {"latitude": 27.6819132, "longitude": 85.38799759999999}, "address": "Madhyapur-Thimi Municipality, Madhyapur Thimi"}, {"name": "Chardobato Bus Stop", "location": {"latitude": 27.6899694, "longitude": 85.3904307}, "address": "Madhyapur-Thimi Municipality, Madhyapur Thimi"}, {"name": "Bode Planning Bus Station", "location": {"latitude": 27.6920261, "longitude": 85.39416969999999}, "address": "Bode Planning, Madhyapur Thimi"}, {"name": "Mulpani Peepalbot Bus Stop", "location": {"latitude": 27.7063748, "longitude": 85.394218}, "address": "Kageshwari Manohara"}, {"name": "Tiwari Tole", "location": {"latitude": 27.7190548, "longitude": 85.3938532}, "address": "Kageshwari Manohara"}, {"name": "Naya Chowk Bus Stop", "location": {"latitude": 27.7725713, "longitude": 85.3596228}, "address": "Budhanilkantha"}, {"name": "Panchakanya Marga (Deuba Chowk Bus Stop)", "location": {"latitude": 27.7748389, "longitude": 85.36109809999999}, "address": "Budhanilkantha"}, {"name": "Rudreshwor Chowk Bus Stop", "location": {"latitude": 27.77144769999999, "longitude": 85.3586724}, "address": "Budhanilkantha"}, {"name": "\u092c\u0941\u0922\u093e\u0928\u093f\u0932\u0915\u0923\u094d\u0920 \u092c\u0938 \u0938\u094d\u091f\u0947\u0936\u0928", "location": {"latitude": 27.777973, "longitude": 85.361121}, "address": "Golfutar Road, Budhanilkantha"}, {"name": "Tinpiple", "location": {"latitude": 27.77667569999999, "longitude": 85.278132}, "address": "Trishuli Highway, Tarakeshwar"}, {"name": "PaaniTyanki Bus Stop", "location": {"latitude": 27.6487216, "longitude": 85.278368}, "address": "Kirtipur"}, {"name": "Taudaha Bus Stop", "location": {"latitude": 27.6489921, "longitude": 85.278999}, "address": "Nepal Tol Marg, Kirtipur"}, {"name": "Khahare Bus Stop", "location": {"latitude": 27.64674949999999, "longitude": 85.2774239}, "address": "Dakshinkali"}, {"name": "Naagdaha", "location": {"latitude": 27.6502794, "longitude": 85.281984}, "address": "Kirtipur"}, {"name": "Lapsi Bot Bus Stop", "location": {"latitude": 27.6516297, "longitude": 85.2862054}, "address": "Kirtipur"}, {"name": "Magargaon Bus Park", "location": {"latitude": 27.6493037, "longitude": 85.3003433}, "address": "Karyabinayak"}, {"name": "Bhainsepati", "location": {"latitude": 27.6522885, "longitude": 85.3050925}, "address": "Ekantakuna-Tikabhairab Road, Karyabinayak"}, {"name": "Milan Chowk Bus Stop", "location": {"latitude": 27.6528508, "longitude": 85.3170079}, "address": "Tikhedewal, Lalitpur"}, {"name": "Nakhipot Micro Park", "location": {"latitude": 27.65149299999999, "longitude": 85.3176649}, "address": "\u091f\u093f\u092e\u094d\u092c \u0938\u093f\u0930\u0915 \u092b\u094d\u200d\u092f\u093e\u0915\u091f\u093f\u094d\u0930\u094d\u200d, Lalitpur"}, {"name": "Nakhipot Bus Station", "location": {"latitude": 27.65151479999999, "longitude": 85.31770089999999}, "address": "Lalitpur"}, {"name": "Loktantrik Chowk Bus Stop", "location": {"latitude": 27.6499855, "longitude": 85.3210473}, "address": "Loktantrik Chowk, Satdobato-Tikabhairab Road, Lalitpur"}, {"name": "Janani Marga Bus Stop", "location": {"latitude": 27.6490102, "longitude": 85.3203647}, "address": "Satdobato-Tikabhairab Road, Lalitpur"}, {"name": "Pragati Chowk Bus Stop", "location": {"latitude": 27.6465927, "longitude": 85.31991010000002}, "address": "Satdobato-Tikabhairab Road, Lalitpur"}, {"name": "Hattiban", "location": {"latitude": 27.6480354, "longitude": 85.3356957}, "address": "Satdobato-Godavari Road, Lalitpur"}, {"name": "Bus Stop", "location": {"latitude": 27.647469, "longitude": 85.336197}, "address": "\u0917\u094b\u0926\u093e\u0935\u0930\u0940 \u0930\u094b\u095c, Lalitpur"}, {"name": "My City bus stop", "location": {"latitude": 27.646699, "longitude": 85.3366059}, "address": "\u0917\u094b\u0926\u093e\u0935\u0930\u0940 \u0930\u094b\u095c, Lalitpur"}, {"name": "Sana Gaun Bus Stop", "location": {"latitude": 27.649786, "longitude": 85.3589255}, "address": "F072, Mahalaxmi"}, {"name": "Dhansar Bus Stop", "location": {"latitude": 27.6537708, "longitude": 85.3775471}, "address": "F091"}, {"name": "Chardobato Bus Stop", "location": {"latitude": 27.6503087, "longitude": 85.3829956}, "address": "F091, Sirutar 7, Bhaktapur, F091"}, {"name": "Mishra Stop", "location": {"latitude": 27.6484555, "longitude": 85.3868365}, "address": "F091, Anantalingeshwar"}, {"name": "Tarkhagal Bus Station", "location": {"latitude": 27.64763809999999, "longitude": 85.3960097}, "address": "Anantalingeshwor"}, {"name": "Radhe Radhe Bus Stand", "location": {"latitude": 27.6746945, "longitude": 85.39777190000001}, "address": "Araniko Highway, Madhyapur Thimi"}, {"name": "Srijana Nagar Bus Stop", "location": {"latitude": 27.67288679999999, "longitude": 85.4039087}, "address": "Araniko Highway, Bhaktapur"}, {"name": "Radheradhe Chowk Bus Stop", "location": {"latitude": 27.67999439999999, "longitude": 85.39835839999999}, "address": "Bhaktapur Road, Madhyapur Thimi"}, {"name": "Hindunagar Chowk Bus Stop", "location": {"latitude": 27.6794225, "longitude": 85.40117959999999}, "address": "Bhaktapur Road, Madhyapur Thimi"}, {"name": "Saraswotikhel Bus Stop", "location": {"latitude": 27.6949338, "longitude": 85.3990929}, "address": "Saraswotikhel Road, Madhyapur Thimi"}, {"name": "Baba Chowk", "location": {"latitude": 27.7128052, "longitude": 85.3935796}, "address": "Kageshwari Manohara"}, {"name": "Milan Chowk", "location": {"latitude": 27.7156689, "longitude": 85.3982037}, "address": "Kageshwari Manohara"}, {"name": "Chautaaro", "location": {"latitude": 27.716253, "longitude": 85.3966641}, "address": "Kageshwari Manohara"}, {"name": "Chuni Bus Stop", "location": {"latitude": 27.7855129, "longitude": 85.3174049}, "address": "Chuni, Chuni to Sangla"}, {"name": "Bihani Chowk Bus Stop", "location": {"latitude": 27.7880157, "longitude": 85.3191932}, "address": "Tarakeshwar"}, {"name": "Kalopani Bus Stand", "location": {"latitude": 27.6981106, "longitude": 85.2431345}, "address": "Chandragiri"}, {"name": "Boshigaun Bus Station", "location": {"latitude": 27.6768369, "longitude": 85.2484023}, "address": "Boshigaun Road, Chandragiri"}, {"name": "Machchhegaun Bus Stop", "location": {"latitude": 27.6704621, "longitude": 85.2500948}, "address": ""}, {"name": "Mahadev Than Bus Stop", "location": {"latitude": 27.6403033, "longitude": 85.2783331}, "address": "Dakshinkali"}, {"name": "Chalnakhel Bus Stop", "location": {"latitude": 27.6379343, "longitude": 85.2796662}, "address": "DakshinKali Road 22"}, {"name": "Dholahiti Bus Stop", "location": {"latitude": 27.6398375, "longitude": 85.3181255}, "address": "Satdobato-Tikabhairab Road, Lalitpur"}, {"name": "Dholahiti Micro Stand", "location": {"latitude": 27.6420297, "longitude": 85.3215263}, "address": "Lalitpur"}, {"name": "Kwo-lachhi Bus Stop", "location": {"latitude": 27.64407569999999, "longitude": 85.3715285}, "address": "F072"}, {"name": "Lubhu", "location": {"latitude": 27.6428469, "longitude": 85.3733128}, "address": "F072, Mahalaxmi"}, {"name": "Pani Tanki Bus Stop", "location": {"latitude": 27.64046249999999, "longitude": 85.3820944}, "address": "F072, Mahalaxmi"}, {"name": "\u092c\u093f\u0930\u0941\u0935\u093e \u092c\u0938 \u0938\u094d\u091f\u0947\u0936\u0928", "location": {"latitude": 27.6410138, "longitude": 85.3911495}, "address": "F091, Anantalingeshwar"}, {"name": "Sallaghari Bus Stand", "location": {"latitude": 27.6698842, "longitude": 85.4107511}, "address": "Nagarkot Road, Bhaktapur"}, {"name": "Dhungedhaara Chowk Bus Stop", "location": {"latitude": 27.6786743, "longitude": 85.4046853}, "address": "Madhyapur Thimi"}, {"name": "Thali Bus Station", "location": {"latitude": 27.7271845, "longitude": 85.4053545}, "address": "Kageshwari Manohara"}, {"name": "Danchhi Bus Station", "location": {"latitude": 27.7269945, "longitude": 85.41475299999999}, "address": "Kageshwari Manohara"}, {"name": "Bhimdhunga", "location": {"latitude": 27.7296251, "longitude": 85.23607489999999}, "address": "Bhimdhunga buspark, Nagarjun"}, {"name": "Bhimdhunga-White House", "location": {"latitude": 27.7273177, "longitude": 85.24003309999999}, "address": "Nagarjun"}, {"name": "\u0917\u0941\u0930\u094d\u091c\u0941\u0927\u093e\u0930\u093e \u092c\u0938 \u092c\u093f\u0938\u094c\u0928\u0940", "location": {"latitude": 27.687706, "longitude": 85.2420898}, "address": "Tribhuvan Rajpath, Chandragiri"}, {"name": "Bauthali Chowk Bus Stop", "location": {"latitude": 27.6771909, "longitude": 85.23978439999999}, "address": "Chandragiri"}, {"name": "Bungamati Bus Station", "location": {"latitude": 27.6284962, "longitude": 85.303685}, "address": "Karyabinayak"}, {"name": "Simako Bus Stop", "location": {"latitude": 27.6352077, "longitude": 85.3186829}, "address": "Lalitpur"}, {"name": "Bogati Dobato", "location": {"latitude": 27.6332912, "longitude": 85.3729266}, "address": "Lubhoo-Jyagata Road, Mahalaxmi"}, {"name": "Jyagata Main Chowk", "location": {"latitude": 27.6327162, "longitude": 85.37298559999999}, "address": "Lubhoo-Jyagata Road, Mahalaxmi"}, {"name": "Budhathoki Tole Bus Stop", "location": {"latitude": 27.6316326, "longitude": 85.373345}, "address": "Lubhoo-Jyagata Road, Mahalaxmi"}, {"name": "Dobato Bus Stop", "location": {"latitude": 27.6292879, "longitude": 85.37393670000002}, "address": "Dharachour-Jyamirkot-Bishankhunarayan Road"}, {"name": "Dharachour Bus Stop", "location": {"latitude": 27.6296519, "longitude": 85.3768614}, "address": "Mahalaxmi"}, {"name": "Lamatar Bus Stop", "location": {"latitude": 27.6327257, "longitude": 85.3908277}, "address": "F072, Mahalaxmi"}, {"name": "Dhungin Buspark", "location": {"latitude": 27.6279908, "longitude": 85.39521570000001}, "address": "F072, Mahalaxmi"}, {"name": "Chundevi Bus Stop", "location": {"latitude": 27.6668816, "longitude": 85.41708109999999}, "address": "Araniko Highway, Bhaktapur"}, {"name": "Bus gundu", "location": {"latitude": 27.6656297, "longitude": 85.4230839}, "address": "Araniko Highway, Bhaktapur"}, {"name": "Kathmandu Bus Stop", "location": {"latitude": 27.6656154, "longitude": 85.4238725}, "address": "Araniko Highway, Suryabinayak"}, {"name": "Bhaktapur Mini Bus Park (Old Route)", "location": {"latitude": 27.6706893, "longitude": 85.42248400000001}, "address": "Dudhpati, Bhaktapur"}, {"name": "Bhaktapur Mini Buspark", "location": {"latitude": 27.67081, "longitude": 85.42254}, "address": "Nagarkot Road, Bhaktapur"}, {"name": "Bhaktapur Mini Bus Park", "location": {"latitude": 27.6718498, "longitude": 85.42300800000001}, "address": "Dudhpati, Bhaktapur"}, {"name": "Mini Buspark", "location": {"latitude": 27.672, "longitude": 85.4231779}, "address": "Nagarkot Road, Bhaktapur"}, {"name": "Mahankal Chowk Bus Stop", "location": {"latitude": 27.6996377, "longitude": 85.417344}, "address": "Changunarayan"}, {"name": "High School Bus Stand", "location": {"latitude": 27.7043848, "longitude": 85.4180789}, "address": "Changunarayan"}, {"name": "Neupanegaun Bus Park", "location": {"latitude": 27.70361, "longitude": 85.420852}, "address": "Neupane Gaun Rd, Bhaktapur"}, {"name": "NEC Bus Station", "location": {"latitude": 27.708835, "longitude": 85.4163945}, "address": "Changunarayan"}, {"name": "Bagha Dhara Bus Stop, Bagha Dhara, Danchhi", "location": {"latitude": 27.7269171, "longitude": 85.418669}, "address": "Sankhu Road, Kageshwari Manohara"}, {"name": "Dhunge Dhara Bus Stop, Pipal Bot, Brahmakhel", "location": {"latitude": 27.7279478, "longitude": 85.4236904}, "address": "Mulpani - Sankhu Road, Kageshwari Manohara"}, {"name": "Bhadrabas Choke Bus Stop", "location": {"latitude": 27.7387867, "longitude": 85.4181916}, "address": "Kageshwari Manohara"}, {"name": "BP chowk", "location": {"latitude": 27.7504873, "longitude": 85.414356}, "address": "Gokarneshwor"}, {"name": "Sundarijal", "location": {"latitude": 27.7590203, "longitude": 85.4207835}, "address": "Gokarneshwor"}, {"name": "Dollu Bus Stop", "location": {"latitude": 27.6226498, "longitude": 85.265429}, "address": "Dakshinkali"}, {"name": "Satikhel Bus Stop", "location": {"latitude": 27.61998329999999, "longitude": 85.2645707}, "address": "Dakshinkali"}, {"name": "Pahiro Bus Stop", "location": {"latitude": 27.6211383, "longitude": 85.2720916}, "address": "Dakshinkali"}, {"name": "Bansbari Bus Stop", "location": {"latitude": 27.6251403, "longitude": 85.2848482}, "address": "Dakshinkali"}, {"name": "Thaiba Bus Stop", "location": {"latitude": 27.6248968, "longitude": 85.3478915}, "address": "Nepal"}, {"name": "Thaiba Bus Stop", "location": {"latitude": 27.625069, "longitude": 85.34772459999999}, "address": "Satdobato-Godavari Road, Godawari"}, {"name": "Thaiba Bus Stop", "location": {"latitude": 27.6247245, "longitude": 85.3480585}, "address": "Satdobato-Godavari Road, Godawari"}, {"name": "Surya Vinayak Bus Stop", "location": {"latitude": 27.6657081, "longitude": 85.424425}, "address": "Araniko Highway, Suryabinayak"}, {"name": "\u0922\u094b\u0932\u0947\u0936\u094d\u0935\u094b\u0930 \u092e\u0939\u093e\u0926\u0947\u0935 \u092c\u0938 \u092c\u093f\u0938\u094c\u0928\u0940", "location": {"latitude": 27.6655581, "longitude": 85.42566719999999}, "address": "Suryabinayak"}, {"name": "Suryabinayak Bus Station", "location": {"latitude": 27.66582399999999, "longitude": 85.4247779}, "address": "Araniko Highway, Suryabinayak"}, {"name": "\u0906\u0926\u0930\u094d\u0936 \u092c\u0938\u0938\u094d\u091f\u092a", "location": {"latitude": 27.66647129999999, "longitude": 85.4334949}, "address": "Araniko Highway, Bhaktapur"}, {"name": "The tourist bus park", "location": {"latitude": 27.6745016, "longitude": 85.4271596}, "address": "Lasku Dhoka, Bhaktapur"}, {"name": "Thulo Byasi Bus Stop", "location": {"latitude": 27.6753988, "longitude": 85.4299356}, "address": "Lasku Dhoka, Bhaktapur"}, {"name": "Mahakali Bus Stop", "location": {"latitude": 27.6758949, "longitude": 85.43173}, "address": "Dekocha, Bhaktapur"}, {"name": "Dekocha Changu Narayan Bus Stop", "location": {"latitude": 27.6763643, "longitude": 85.4327399}, "address": "Nagarkot Road, Bhaktapur"}, {"name": "Changunarayan Bus Park", "location": {"latitude": 27.712566, "longitude": 85.42487729999999}, "address": "Changunarayan"}, {"name": "Changunarayan Bus Park", "location": {"latitude": 27.7163631, "longitude": 85.4306661}, "address": "Changunarayan"}, {"name": "Nyacho Pauwa Bus Stop", "location": {"latitude": 27.7168846, "longitude": 85.43262179999999}, "address": "Changunarayan Road, Changunarayan"}, {"name": "Barmakhel Bus station", "location": {"latitude": 27.7290078, "longitude": 85.4268122}, "address": "Kageshwari Manohara"}, {"name": "Shes Narayan Than Bus Stop", "location": {"latitude": 27.6170411, "longitude": 85.26433999999999}, "address": "Dakshinkali"}, {"name": "Pharping Bus Stop", "location": {"latitude": 27.6129414, "longitude": 85.2648363}, "address": "Dakshinkali"}, {"name": "Bhanjyang Bus Stop", "location": {"latitude": 27.61810819999999, "longitude": 85.2751037}, "address": "Dakshinkali"}, {"name": "\u092b\u094d\u0930\u0947\u0928\u094d\u0921\u0938 \u092a\u094d\u0930\u0924\u093f\u0915\u094d\u0937\u093e\u0932\u092f", "location": {"latitude": 27.612565, "longitude": 85.319918}, "address": "\u0932\u0915\u094d\u0937\u094d\u092e\u0940 \u092a\u094d\u0930\u0938\u093e\u0926 \u0926\u0947\u0935\u0915\u094b\u091f\u093e \u092e\u093e\u0930\u094d\u0917, Thecho"}, {"name": "Thecho Bus Stop", "location": {"latitude": 27.6125659, "longitude": 85.3199369}, "address": "Laxmi Prasad Devkota Way, Thecho"}, {"name": "Jharuwarasi Bus Stop", "location": {"latitude": 27.6141202, "longitude": 85.33924069999999}, "address": "Jharuwarasi"}, {"name": "Bhanjyang Bus Stop", "location": {"latitude": 27.6119361, "longitude": 85.3383422}, "address": "Jharuwarasi"}, {"name": "Santaneshwor Mahadev Bus Stand", "location": {"latitude": 27.6148736, "longitude": 85.3428698}, "address": "Jharuwarasi"}, {"name": "Badegaun Bus Stop", "location": {"latitude": 27.6178016, "longitude": 85.3527081}, "address": "Godawari"}, {"name": "Bisankhu Narayan bus stop", "location": {"latitude": 27.615914, "longitude": 85.3546719}, "address": "\u0917\u094b\u0926\u093e\u0935\u0930\u0940 \u092e\u093e\u0930\u094d\u0917, Godawari"}, {"name": "Toukhel Bus Stop", "location": {"latitude": 27.6114845, "longitude": 85.3574878}, "address": "Satdobato-Godavari Road, Godawari"}, {"name": "Lankuri Bhanjyang", "location": {"latitude": 27.6154829, "longitude": 85.41151409999999}, "address": "Lamatar-LankuriBhanjyang Road, Mahalaxmi"}, {"name": "Jagati Bus Stand", "location": {"latitude": 27.666541, "longitude": 85.4374402}, "address": "Araniko Highway, Bhaktapur"}, {"name": "Chaymasing - Kalanki Bus Stop", "location": {"latitude": 27.6731695, "longitude": 85.43836979999999}, "address": "Garud Kundal Road, Bhaktapur"}, {"name": "Chyaamasing - Ratna Park Bus Stop", "location": {"latitude": 27.6732621, "longitude": 85.4383618}, "address": "Garud Kundal Road, Bhaktapur"}, {"name": "Chaymasing Bus Stop", "location": {"latitude": 27.6734497, "longitude": 85.438363}, "address": "Garud Kundal Road, Bhaktapur"}, {"name": "Mahalaxmi Bus Stop", "location": {"latitude": 27.6761341, "longitude": 85.4336235}, "address": "Dekocha, Bhaktapur"}, {"name": "Kamal-Vinayak Bus Park", "location": {"latitude": 27.6763685, "longitude": 85.4372112}, "address": "Garud Kundal Road, Bhaktapur"}, {"name": "Kamal-Vinayak Bus Stop", "location": {"latitude": 27.6770959, "longitude": 85.43638229999999}, "address": "Nagarkot Road, Bhaktapur"}, {"name": "Tathali Nala Bus Stop", "location": {"latitude": 27.6736488, "longitude": 85.439846}, "address": "Bhaktapur"}, {"name": "Nagarkot", "location": {"latitude": 27.6775257, "longitude": 85.43777899999999}, "address": "opposite to bus park"}, {"name": "Chyaamasing Bus Park", "location": {"latitude": 27.6737856, "longitude": 85.4428454}, "address": "Bhaktapur"}, {"name": "Pakune Pati Centre Bus Stop", "location": {"latitude": 27.6970325, "longitude": 85.4407114}, "address": "Changunarayan Road, Changunarayan"}, {"name": "Pikhel Bus Stop", "location": {"latitude": 27.7022713, "longitude": 85.4399335}, "address": "Changunarayan Road, Changunarayan"}, {"name": "Ghumti Ghar Bus Stop", "location": {"latitude": 27.7055674, "longitude": 85.43967599999999}, "address": "Changunarayan Road, Changunarayan"}, {"name": "Pikhel Height Bus Stop", "location": {"latitude": 27.7075906, "longitude": 85.4394186}, "address": "Changunarayan"}, {"name": "Indra Chowk Bus Stop", "location": {"latitude": 27.7103357, "longitude": 85.439145}, "address": "Changunarayan Road, Changunarayan"}, {"name": "Ramailo Gaun Bus Stop", "location": {"latitude": 27.712715, "longitude": 85.43865679999999}, "address": "Changunarayan Road, Changunarayan"}, {"name": "Pauwa Bus Stop", "location": {"latitude": 27.713964, "longitude": 85.4377717}, "address": "Changunarayan Road, Changunarayan"}, {"name": "Indrayani Bus Station", "location": {"latitude": 27.7298815, "longitude": 85.43415069999999}, "address": "Indrayani Sadak, Shankharapur"}, {"name": "Bhimeshower Bus Stop", "location": {"latitude": 27.7419226, "longitude": 85.43456909999999}, "address": "Bhimsentar, Kageshwari Manohara"}, {"name": "\u0928\u093e\u0917\u0922\u0941\u0902\u0917\u093e \u092c\u0938 \u092c\u093f\u0938\u094c\u0928\u0940", "location": {"latitude": 27.6994643, "longitude": 85.2088559}, "address": "Tribhuvan Highway, Chandragiri"}, {"name": "Dakshinkali Bus Park", "location": {"latitude": 27.6060149, "longitude": 85.2665073}, "address": "Pharping-Kulekhani Road, Dakshinkali"}, {"name": "Tasinchok Bus Stop", "location": {"latitude": 27.6075105, "longitude": 85.33632519999999}, "address": "Jharuwarasi"}, {"name": "Kittachaur Bus Station", "location": {"latitude": 27.6092634, "longitude": 85.3732203}, "address": "Bistachhap, Godawari"}, {"name": "Bhatey Dhikoor Bus Stop", "location": {"latitude": 27.6610472, "longitude": 85.44648889999999}, "address": "\u0935\u093e\u091a\u093e\u092e\u0930\u0940 \u092d\u093e\u0924\u0947-\u0922\u093f\u0915\u0942\u0930,, \u0905\u0930\u0928\u093f\u0915\u094b \u0930\u093e\u091c\u092e\u093e\u0930\u094d\u0917, \u092d\u0915\u094d\u0924\u092a\u0941\u0930"}, {"name": "\u092c\u093e\u0901\u0938\u0918\u093e\u0930\u0940", "location": {"latitude": 27.6587095, "longitude": 85.452674}, "address": "Araniko Highway, Suryabinayak"}, {"name": "Sanagaun Chock", "location": {"latitude": 27.7369088, "longitude": 85.44582369999999}, "address": "Shankharapur"}, {"name": "Raju Niwash", "location": {"latitude": 27.7512279, "longitude": 85.4455662}, "address": "Kageshwari Manohara"}, {"name": "Gagal Bus Station", "location": {"latitude": 27.752864, "longitude": 85.4480999}, "address": "Kageshwari Manohara"}, {"name": "Chapagaun Bus Stop", "location": {"latitude": 27.5976633, "longitude": 85.3239201}, "address": "Satdobato-Tikabhairab Road, Chapagaon"}, {"name": "\u092c\u0938 \u092a\u093e\u0930\u094d\u0915", "location": {"latitude": 27.597523, "longitude": 85.323877}, "address": "\u0938\u093e\u0924\u0926\u094b\u092c\u093e\u091f\u094b - \u091f\u093f\u0915\u093e \u092d\u0923\u094d\u0921\u093e\u0930\u0940 \u092e\u093e\u0930\u094d\u0917, Chapagaon"}, {"name": "Godawari Bus Stop", "location": {"latitude": 27.5944919, "longitude": 85.3780764}, "address": "Godawari"}, {"name": "Ryaale VDC", "location": {"latitude": 27.5964352, "longitude": 85.4562303}, "address": "Panauti-Kushadevi Road, Ryale"}, {"name": "Kankrabari Dovan Bus Stop", "location": {"latitude": 27.6288273, "longitude": 85.4594426}, "address": "Suryabinayak"}, {"name": "Nalin Chowk Bus Stop", "location": {"latitude": 27.6540221, "longitude": 85.45696559999999}, "address": "Araniko Highway, Suryabinayak"}, {"name": "Milanchowk Bus Stop", "location": {"latitude": 27.6534115, "longitude": 85.4598463}, "address": "Milanchowk, Araniko Highway"}, {"name": "Jorpati", "location": {"latitude": 27.65172939999999, "longitude": 85.4617533}, "address": "Araniko Highway, Suryabinayak"}, {"name": "Bansbari Bus Stop", "location": {"latitude": 27.6886963, "longitude": 85.45747519999999}, "address": "Changunarayan"}, {"name": "Ghumaune", "location": {"latitude": 27.694904, "longitude": 85.46074879999999}, "address": "Nagarkot Road, Changunarayan"}, {"name": "Sanku Buspark", "location": {"latitude": 27.7278123, "longitude": 85.46193199999999}, "address": "Shankharapur"}, {"name": "Palanse", "location": {"latitude": 27.6438051, "longitude": 85.4654212}, "address": "Araniko Highway, Suryabinayak"}, {"name": "\u092b\u0948\u0922\u094b\u0915\u093e \u092c\u0938 \u0938\u094d\u091f\u092a", "location": {"latitude": 27.668782, "longitude": 85.4663372}, "address": "Mahamanjushree Nagarkot"}, {"name": "Subidhanagar Bus Stand", "location": {"latitude": 27.6955505, "longitude": 85.46313459999999}, "address": "Subidhanagar Road, Mahamanjushree Nagarkot"}, {"name": "Krishna Mandir Bus Stand", "location": {"latitude": 27.6966714, "longitude": 85.4655312}, "address": "Rajkulo, Changunarayan"}, {"name": "Bhadrakali Bus Stop", "location": {"latitude": 27.6977987, "longitude": 85.4667309}, "address": "Bhadrakali Road, Changunarayan"}, {"name": "Kharipati Bus Stop", "location": {"latitude": 27.7023866, "longitude": 85.4702877}, "address": "Nagarkot Road, Changunarayan"}, {"name": "Chhyabasti Bus Stop", "location": {"latitude": 27.7157639, "longitude": 85.46887459999999}, "address": "Telkot-Changu Road, Changunarayan"}, {"name": "Barahi Sthan", "location": {"latitude": 27.8454323, "longitude": 85.1930094}, "address": "Barahi Madanpur, Madanpur"}, {"name": "Kushadevi", "location": {"latitude": 27.5917175, "longitude": 85.47395440000001}, "address": "Panauti-Kushadevi Road, Kushadevi"}, {"name": "\u0938\u093e\u0901\u0917\u093e \u092c\u0938 \u092c\u093f\u0938\u094c\u0928\u0940", "location": {"latitude": 27.6418378, "longitude": 85.477622}, "address": "Araniko Highway, Sanga"}, {"name": "Nasika Bus Stop", "location": {"latitude": 27.6404388, "longitude": 85.48100889999999}, "address": "Araniko Highway, Sanga"}, {"name": "Gothalechour Bus Stop", "location": {"latitude": 27.667224, "longitude": 85.4754705}, "address": "Bhaktapur Nala Road, Tukucha Nala"}, {"name": "Hanuman Chowk Bus Stop", "location": {"latitude": 27.6658994, "longitude": 85.4809847}, "address": ""}, {"name": "Tathali Pul", "location": {"latitude": 27.6678128, "longitude": 85.4801345}, "address": "Mahamanjushree Nagarkot"}, {"name": "Muhan Pokhari Bus Stand", "location": {"latitude": 27.7045226, "longitude": 85.4741263}, "address": "Nagarkot Road, Mahamanjushree Nagarkot"}, {"name": "Telkot", "location": {"latitude": 27.7122893, "longitude": 85.4750913}, "address": "Telkot-Changu Road, Changunarayan"}, {"name": "Bastola Gaun Bus Stop", "location": {"latitude": 27.7082009, "longitude": 85.4811537}, "address": "Nagarkot Road, Mahamanjushree Nagarkot"}]